[
  {
    "externalId": "84F3EB47DD83",
    "lat": 50.881202,
    "lng": 20.617282,
    "city": "Kielce",
    "name": "Hoża"
  },
  {
    "externalId": "5CCF7FC08A4C",
    "lat": 50.866194,
    "lng": 20.635919,
    "city": "Kielce",
    "name": "Żeromskiego"
  },
  {
    "externalId": "A020A6036700",
    "lat": 50.8721,
    "lng": 20.626,
    "city": "Kielce",
    "name": "Planty"
  },
  {
    "externalId": "84F3EB85D58D",
    "lat": 50.811892,
    "lng": 20.557938,
    "city": "Kielce",
    "name": "Chorzowska"
  },
  {
    "externalId": "A020A60366FD",
    "lat": 50.868097,
    "lng": 20.653811,
    "city": "Kielce",
    "name": "Pomorska"
  },
  {
    "externalId": "A020A6036A57",
    "lat": 50.883183,
    "lng": 20.583243,
    "city": "Kielce",
    "name": "Osiedle Ślichowice"
  },
  {
    "externalId": "A020A6036743",
    "lat": 50.843752,
    "lng": 20.639836,
    "city": "Kielce",
    "name": "Pod Telegrafem"
  },
  {
    "externalId": "A020A603682C",
    "lat": 50.8108,
    "lng": 20.6204,
    "city": "Kielce",
    "name": "Ściegiennego Południe"
  },
  {
    "externalId": "84F3EB85D54D",
    "lat": 50.904810,
    "lng": 20.647127,
    "city": "Kielce",
    "name": "Osiedle Sieje"
  },
  {
    "externalId": "84F3EB47DD6B",
    "lat": 50.894167,
    "lng": 20.673472,
    "city": "Kielce",
    "name": "Osiedle Na Stoku"
  },
  {
    "externalId": "A020A60369E4",
    "lat": 50.905429,
    "lng": 20.665800,
    "city": "Kielce",
    "name": "Osiedle Dąbrowa"
  },
  {
    "externalId": "A020A603684E",
    "lat": 50.933114,
    "lng": 20.676974,
    "city": "Kielce",
    "name": "Wiśniówka"
  },
  {
    "externalId": "6001944B3803",
    "lat": 50.846554,
    "lng": 20.632610,
    "city": "Kielce",
    "name": "Osiedle Barwinek"
  },
  {
    "externalId": "A020A6294F8A",
    "lat": 50.805,
    "lng": 20.3594,
    "city": "Bolmin",
    "name": "Bolmin"
  },
  {
    "externalId": "A020A60369EB",
    "lat": 50.8139,
    "lng": 20.4722,
    "city": "Chęciny",
    "name": "Chęciny"
  },
  {
    "externalId": "60019455D01E",
    "lat": 50.8922,
    "lng": 20.6669,
    "city": "Kielce",
    "name": "Piłsudskiego"
  },
  {
    "externalId": "2C3AE833FFD2",
    "lat": 50.9627,
    "lng": 20.5436,
    "city": "Ćmińsk",
    "name": "Ćmińsk"
  },
  {
    "externalId": "84F3EB47DD4A",
    "lat": 50.8874,
    "lng": 20.7804,
    "city": "Mąchocice Kapitulne",
    "name": "Mąchocice Kapitulne"
  },
  {
    "externalId": "84F3EB85D590",
    "lat": 50.8917,
    "lng": 21.0889,
    "city": "Rudki",
    "name": "Rudki"
  },
  {
    "externalId": "84F3EB85D54C",
    "lat": 50.9443,
    "lng": 20.9487,
    "city": "Bodzentyn",
    "name": "Bodzentyn"
  },
  {
    "externalId": "A020A6294FAD",
    "lat": 51.3857,
    "lng": 20.2752,
    "city": "Opoczno",
    "name": "Opoczno"
  },
  {
    "externalId": "84F3EB47DD7A",
    "lat": 51.1055,
    "lng": 20.7612,
    "city": "Bliżyn",
    "name": "Bliżyn"
  },
  {
    "externalId": "A020A60369F6",
    "lat": 51.1197,
    "lng": 20.9102,
    "city": "Skarżysko Kamienna",
    "name": "Skarżysko Kamienna"
  },
  {
    "externalId": "6001944BCDE3",
    "lat": 50.6396,
    "lng": 20.3001,
    "city": "Jędrzejów",
    "name": "Jędrzejów"
  }
]
